{
"type": "FeatureCollection",
"name": "EarlyPollingHouston",
"crs": { "type": "name", "properties": { "name": "urn:ogc:def:crs:OGC:1.3:CRS84" } },
"features": [
{ "type": "Feature", "properties": { "Name": "Kingdom Builders Center", "Address": "6011 West Orem Drive" }, "geometry": { "type": "Point", "coordinates": [ -95.472670000231346, 29.633485500303667 ] } },
{ "type": "Feature", "properties": { "Name": "Bayland Park Community Center", "Address": "6400 Bissonnet Street" }, "geometry": { "type": "Point", "coordinates": [ -95.503439999946508, 29.689574999687679 ] } },
{ "type": "Feature", "properties": { "Name": "HCC West Loop South", "Address": "5601 West Loop South" }, "geometry": { "type": "Point", "coordinates": [ -95.487960000103541, 29.701879999811599 ] } },
{ "type": "Feature", "properties": { "Name": "Comfort Suites Westchase", "Address": "2830 Wilcrest Drive" }, "geometry": { "type": "Point", "coordinates": [ -95.5718899591199, 29.733290006670352 ] } },
{ "type": "Feature", "properties": { "Name": "Fallbrook Church", "Address": "12512 Walters Road" }, "geometry": { "type": "Point", "coordinates": [ -95.485435799732159, 29.986952999817262 ] } },
{ "type": "Feature", "properties": { "Name": "Tracy Gee Community Center", "Address": "3599 Westcenter Drive" }, "geometry": { "type": "Point", "coordinates": [ -95.548900000382531, 29.726614999970213 ] } },
{ "type": "Feature", "properties": { "Name": "Humble Civic Center", "Address": "8233 Will Clayton Pkwy" }, "geometry": { "type": "Point", "coordinates": [ -95.263275000003702, 30.000439999788576 ] } },
{ "type": "Feature", "properties": { "Name": "ISGH Bear Creek Community Center", "Address": "17250 Coventry Park Drive" }, "geometry": { "type": "Point", "coordinates": [ -95.6472500999202, 29.842233499918237 ] } },
{ "type": "Feature", "properties": { "Name": "John Knox Presbyterian Church", "Address": "2525 Gessner Road" }, "geometry": { "type": "Point", "coordinates": [ -95.526334999571787, 29.826000000324612 ] } },
{ "type": "Feature", "properties": { "Name": "Houston Food Bank", "Address": "535 Portwall St" }, "geometry": { "type": "Point", "coordinates": [ -95.282135000036362, 29.759375000281477 ] } },
{ "type": "Feature", "properties": { "Name": "Katherine Tyra Branch Library", "Address": "16719 Clay Road" }, "geometry": { "type": "Point", "coordinates": [ -95.6472500999202, 29.842233499918237 ] } },
{ "type": "Feature", "properties": { "Name": "HCC Southeast College Main Parking Lot", "Address": "6960 Rustic Street" }, "geometry": { "type": "Point", "coordinates": [ -95.312669999574865, 29.682690000144046 ] } },
{ "type": "Feature", "properties": { "Name": "Trini Mendenhall Community Center", "Address": "1414 Wirt Road" }, "geometry": { "type": "Point", "coordinates": [ -95.484789999077748, 29.795629991688333 ] } },
{ "type": "Feature", "properties": { "Name": "NRG Arena", "Address": "1 NRG Pkwy" }, "geometry": { "type": "Point", "coordinates": [ -95.393614999734226, 29.68236499968032 ] } },
{ "type": "Feature", "properties": { "Name": "Encourager Church", "Address": "10950 Katy Freeway" }, "geometry": { "type": "Point", "coordinates": [ -95.576600000427689, 29.793174999977655 ] } },
{ "type": "Feature", "properties": { "Name": "Toyota Center", "Address": "1510 Polk St" }, "geometry": { "type": "Point", "coordinates": [ -95.369775000277812, 29.752455000285543 ] } },
{ "type": "Feature", "properties": { "Name": "Acres Homes Multi Service Center", "Address": "6719 West Montgomery Road" }, "geometry": { "type": "Point", "coordinates": [ -95.412575000224351, 29.856955000319971 ] } },
{ "type": "Feature", "properties": { "Name": "Resurrection Metropolitan Community Church", "Address": "2025 West 11th Street" }, "geometry": { "type": "Point", "coordinates": [ -95.418410019728753, 29.789960012056643 ] } },
{ "type": "Feature", "properties": { "Name": "Fallbrook Church", "Address": "12512 Walters Road" }, "geometry": { "type": "Point", "coordinates": [ -95.485435799732159, 29.986952999817262 ] } },
{ "type": "Feature", "properties": { "Name": "HCC Alief Center", "Address": "13803 Bissonnet St" }, "geometry": { "type": "Point", "coordinates": [ -95.643930000291959, 29.702020000190963 ] } },
{ "type": "Feature", "properties": { "Name": "County Attorney Conference Center", "Address": "1019 Congress Avenue" }, "geometry": { "type": "Point", "coordinates": [ -95.369775000277812, 29.752455000285543 ] } },
{ "type": "Feature", "properties": { "Name": "New Destiny Praise and Worship Center", "Address": "4170 West Greens Road" }, "geometry": { "type": "Point", "coordinates": [ -95.485270030917846, 29.942619991708018 ] } },
{ "type": "Feature", "properties": { "Name": "HCPL Barbara Bush Branch", "Address": "6817 Cypresswood Drive" }, "geometry": { "type": "Point", "coordinates": [ -95.512230003323523, 30.011920016338159 ] } },
{ "type": "Feature", "properties": { "Name": "Lone Star College Victory Center", "Address": "4141 Victory Drive" }, "geometry": { "type": "Point", "coordinates": [ -95.477025000389389, 29.889670000355203 ] } },
{ "type": "Feature", "properties": { "Name": "Fairfield Inn and Suites Houston NW Willowbrook", "Address": "10825 North Gessner" }, "geometry": { "type": "Point", "coordinates": [ -95.564399700279708, 29.928737100292686 ] } },
{ "type": "Feature", "properties": { "Name": "Hardy Street Senior Citizens Center", "Address": "11901 West Hardy Road" }, "geometry": { "type": "Point", "coordinates": [ -95.366559985571499, 29.873880003589413 ] } },
{ "type": "Feature", "properties": { "Name": "Lakewood Residents Club", "Address": "15006 Lakewood Forest Drive" }, "geometry": { "type": "Point", "coordinates": [ -95.593059964329271, 29.991579987387752 ] } },
{ "type": "Feature", "properties": { "Name": "Masjid AlSalam", "Address": "16700 Old Louetta Road" }, "geometry": { "type": "Point", "coordinates": [ -95.519089999668807, 30.023605000307544 ] } },
{ "type": "Feature", "properties": { "Name": "BakerRipley East Aldine Campus", "Address": "3000 Aldine Mail Route Road" }, "geometry": { "type": "Point", "coordinates": [ -95.333499999635748, 29.905054999795201 ] } },
{ "type": "Feature", "properties": { "Name": "Prairie View A&M University Northwest", "Address": "9449 Grant Road" }, "geometry": { "type": "Point", "coordinates": [ -95.579261999668674, 29.964109299971295 ] } },
{ "type": "Feature", "properties": { "Name": "Lake Houston Church of Christ", "Address": "8003 Farmingham Road" }, "geometry": { "type": "Point", "coordinates": [ -95.151559978569622, 29.99792999159709 ] } },
{ "type": "Feature", "properties": { "Name": "Anclamars W Reception Hall B", "Address": "10330 Eastex Fwy" }, "geometry": { "type": "Point", "coordinates": [ -95.337770000303337, 29.847625000269616 ] } },
{ "type": "Feature", "properties": { "Name": "Victory Houston", "Address": "809 West Road" }, "geometry": { "type": "Point", "coordinates": [ -95.444057900254066, 29.919570000034547 ] } },
{ "type": "Feature", "properties": { "Name": "Church of Christ on Bammel Road", "Address": "2700 Cypress Creek Parkway" }, "geometry": { "type": "Point", "coordinates": [ -95.470540009352746, 30.003450019096203 ] } },
{ "type": "Feature", "properties": { "Name": "Kingwood Community Center", "Address": "4102 Rustic Woods Drive" }, "geometry": { "type": "Point", "coordinates": [ -95.184809982442474, 30.055020013876803 ] } },
{ "type": "Feature", "properties": { "Name": "Northeast Multi Service Center", "Address": "9720 Spaulding Street" }, "geometry": { "type": "Point", "coordinates": [ -95.297399999794223, 29.876780000193914 ] } },
{ "type": "Feature", "properties": { "Name": "Coady Baptist Church", "Address": "5606 Wade Road" }, "geometry": { "type": "Point", "coordinates": [ -95.016479993089575, 29.783970010007238 ] } },
{ "type": "Feature", "properties": { "Name": "Green House International Church", "Address": "200 West Greens Road" }, "geometry": { "type": "Point", "coordinates": [ -95.456350399889544, 29.952906500314402 ] } },
{ "type": "Feature", "properties": { "Name": "Holiday Inn Houston Intercontinental Airport Hotel", "Address": "15222 John F Kennedy Boulevard" }, "geometry": { "type": "Point", "coordinates": [ -95.327370000341517, 29.942315000353101 ] } },
{ "type": "Feature", "properties": { "Name": "Lone Star College North Harris", "Address": "2005 W W Thorne Boulevard" }, "geometry": { "type": "Point", "coordinates": [ -95.406419999917418, 29.989760000156043 ] } },
{ "type": "Feature", "properties": { "Name": "HCC North Forest Campus", "Address": "6010 Little York Road" }, "geometry": { "type": "Point", "coordinates": [ -95.297399999794223, 29.876780000193914 ] } },
{ "type": "Feature", "properties": { "Name": "Humble Civic Center", "Address": "8233 Will Clayton Pkwy" }, "geometry": { "type": "Point", "coordinates": [ -95.263275000003702, 30.000439999788576 ] } },
{ "type": "Feature", "properties": { "Name": "C E King Middle School", "Address": "8530 C E King Parkway" }, "geometry": { "type": "Point", "coordinates": [ -95.173935900182713, 29.925379099611416 ] } },
{ "type": "Feature", "properties": { "Name": "Houston Food Bank", "Address": "535 Portwall St" }, "geometry": { "type": "Point", "coordinates": [ -95.282135000036362, 29.759375000281477 ] } },
{ "type": "Feature", "properties": { "Name": "Kashmere MultiService Center", "Address": "4802 Lockwood Drive" }, "geometry": { "type": "Point", "coordinates": [ -95.316959989554164, 29.804440001286768 ] } },
{ "type": "Feature", "properties": { "Name": "North Channel Branch Library", "Address": "15741 Wallisville Road" }, "geometry": { "type": "Point", "coordinates": [ -95.156589958459151, 29.810549989551287 ] } },
{ "type": "Feature", "properties": { "Name": "Martin Flukinger Community Center", "Address": "16003 Lorenzo Street" }, "geometry": { "type": "Point", "coordinates": [ -95.121269999914745, 29.779440000116004 ] } },
{ "type": "Feature", "properties": { "Name": "Alvin D Baggett Community Center", "Address": "1302 Keene Street" }, "geometry": { "type": "Point", "coordinates": [ -95.236450000367739, 29.737475000024649 ] } },
{ "type": "Feature", "properties": { "Name": "Milton Lusk Use Activity", "Address": "1022 Mercury Drive" }, "geometry": { "type": "Point", "coordinates": [ -95.282135000036362, 29.759375000281477 ] } },
{ "type": "Feature", "properties": { "Name": "Neighborhood Centers Inc Ripley House Campus", "Address": "4410 Navigation Boulevard" }, "geometry": { "type": "Point", "coordinates": [ -95.327869958611217, 29.752280004467391 ] } },
{ "type": "Feature", "properties": { "Name": "Harris County Cultural Arts Center", "Address": "13334 Wallisville Road" }, "geometry": { "type": "Point", "coordinates": [ -95.173935900182713, 29.925379099611416 ] } },
{ "type": "Feature", "properties": { "Name": "Lee College", "Address": "200 Lee Drive" }, "geometry": { "type": "Point", "coordinates": [ -94.961184999767781, 29.735110000274886 ] } },
{ "type": "Feature", "properties": { "Name": "John Phelps Courthouse", "Address": "101 South Richey Street" }, "geometry": { "type": "Point", "coordinates": [ -95.203780000046351, 29.707205000154609 ] } },
{ "type": "Feature", "properties": { "Name": "Iglesia Una Luz en Tu Camino", "Address": "9045 Howard Drive" }, "geometry": { "type": "Point", "coordinates": [ -95.248341040207862, 29.683900000148022 ] } },
{ "type": "Feature", "properties": { "Name": "HCC Southeast College Building C Parking Garage", "Address": "6960 Rustic Street" }, "geometry": { "type": "Point", "coordinates": [ -95.312669999574865, 29.682690000144046 ] } },
{ "type": "Feature", "properties": { "Name": "Cleveland Ripley Neighborhood Center", "Address": "720 Fairmont Parkway" }, "geometry": { "type": "Point", "coordinates": [ -95.185294999932324, 29.655544999694577 ] } },
{ "type": "Feature", "properties": { "Name": "Saint Philip Neri Catholic Church", "Address": "10960 Martin Luther King Boulevard" }, "geometry": { "type": "Point", "coordinates": [ -95.338759978780757, 29.640210018918324 ] } },
{ "type": "Feature", "properties": { "Name": "NRG Arena", "Address": "1 NRG Pkwy" }, "geometry": { "type": "Point", "coordinates": [ -95.393614999734226, 29.68236499968032 ] } },
{ "type": "Feature", "properties": { "Name": "Sunnyside Multi Service Center", "Address": "9314 Cullen Boulevard" }, "geometry": { "type": "Point", "coordinates": [ -95.369135000045219, 29.671939999710283 ] } },
{ "type": "Feature", "properties": { "Name": "J J Roberson Family Life Center", "Address": "4810 Redbud" }, "geometry": { "type": "Point", "coordinates": [ -95.339525000246326, 29.672449999848794 ] } },
{ "type": "Feature", "properties": { "Name": "Toyota Center", "Address": "1510 Polk St" }, "geometry": { "type": "Point", "coordinates": [ -95.369775000277812, 29.752455000285543 ] } },
{ "type": "Feature", "properties": { "Name": "West End Multi Service Center", "Address": "170 Heights Boulevard" }, "geometry": { "type": "Point", "coordinates": [ -95.411570000118772, 29.771854999983105 ] } },
{ "type": "Feature", "properties": { "Name": "Marriott Houston South at Hobby Airport", "Address": "9100 Gulf Freeway" }, "geometry": { "type": "Point", "coordinates": [ -95.248341040207862, 29.683900000148022 ] } },
{ "type": "Feature", "properties": { "Name": "Wheeler Avenue Baptist Church", "Address": "3826 Wheeler Ave" }, "geometry": { "type": "Point", "coordinates": [ -95.351699960716786, 29.719309997361695 ] } },
{ "type": "Feature", "properties": { "Name": "Texas Southern University", "Address": "3100 Cleburne Street" }, "geometry": { "type": "Point", "coordinates": [ -95.355104999648432, 29.731345000252436 ] } },
{ "type": "Feature", "properties": { "Name": "University of Houston", "Address": "4800 Calhoun Road" }, "geometry": { "type": "Point", "coordinates": [ -95.355104999648432, 29.731345000252436 ] } },
{ "type": "Feature", "properties": { "Name": "Shrine of The Black Madonna Cultural and Event Center", "Address": "5309 Martin Luther King Boulevard" }, "geometry": { "type": "Point", "coordinates": [ -95.351644999991109, 29.696190000359838 ] } },
{ "type": "Feature", "properties": { "Name": "Sheraton Houston Brookhollow Hotel", "Address": "3000 North Loop West Freeway" }, "geometry": { "type": "Point", "coordinates": [ -95.450069976802652, 29.804129995910646 ] } },
{ "type": "Feature", "properties": { "Name": "Clark Park Community Center", "Address": "9718 Clark Road" }, "geometry": { "type": "Point", "coordinates": [ -95.37606003441708, 29.84765998512971 ] } },
{ "type": "Feature", "properties": { "Name": "The Grand Tuscany Hotel", "Address": "12801 Northwest Freeway" }, "geometry": { "type": "Point", "coordinates": [ -95.50826999958241, 29.845919999998493 ] } },
{ "type": "Feature", "properties": { "Name": "Moody Park Community Center", "Address": "3725 Fulton Street" }, "geometry": { "type": "Point", "coordinates": [ -95.359130000093643, 29.780429999823205 ] } },
{ "type": "Feature", "properties": { "Name": "SPJST Lodge Num 88", "Address": "1435 Beall Street" }, "geometry": { "type": "Point", "coordinates": [ -95.417950021217848, 29.797280011745698 ] } },
{ "type": "Feature", "properties": { "Name": "Resurrection Metropolitan Community Church", "Address": "2025 West 11th Street" }, "geometry": { "type": "Point", "coordinates": [ -95.418410019728753, 29.789960012056643 ] } },
{ "type": "Feature", "properties": { "Name": "HCC Alief Center", "Address": "13803 Bissonnet St" }, "geometry": { "type": "Point", "coordinates": [ -95.643930000291959, 29.702020000190963 ] } },
{ "type": "Feature", "properties": { "Name": "Mission Bend Islamic Center", "Address": "6233 Tres Lagunas" }, "geometry": { "type": "Point", "coordinates": [ -95.643930000291959, 29.702020000190963 ] } },
{ "type": "Feature", "properties": { "Name": "Klein Multipurpose Center", "Address": "7500 FM 2920" }, "geometry": { "type": "Point", "coordinates": [ -95.537830011729, 30.073249982912376 ] } },
{ "type": "Feature", "properties": { "Name": "Lone Star College Creekside", "Address": "8747 West New Harmony Trail" }, "geometry": { "type": "Point", "coordinates": [ -95.621510000144468, 30.094810000157963 ] } },
{ "type": "Feature", "properties": { "Name": "Samuel Matthews Park Community Center", "Address": "1728 East Hufsmith Road" }, "geometry": { "type": "Point", "coordinates": [ -95.621510000144468, 30.094810000157963 ] } },
{ "type": "Feature", "properties": { "Name": "Spring First Church", "Address": "1851 Spring Cypress Road" }, "geometry": { "type": "Point", "coordinates": [ -95.437945000391224, 30.046164999881846 ] } },
{ "type": "Feature", "properties": { "Name": "Hosanna Lutheran Church", "Address": "16526 Ella Blvd" }, "geometry": { "type": "Point", "coordinates": [ -95.443304999756563, 30.02187499995318 ] } },
{ "type": "Feature", "properties": { "Name": "La Porte Recreation and Fitness Center", "Address": "1322 South Broadway" }, "geometry": { "type": "Point", "coordinates": [ -95.02512000027204, 29.666679999887251 ] } },
{ "type": "Feature", "properties": { "Name": "San Jacinto Community Center", "Address": "604 Highland Woods Drive" }, "geometry": { "type": "Point", "coordinates": [ -95.064630003135449, 29.81922002068163 ] } },
{ "type": "Feature", "properties": { "Name": "East Harris County Activity Center", "Address": "7340 Spencer Highway" }, "geometry": { "type": "Point", "coordinates": [ -95.141874999844745, 29.650429999770672 ] } },
{ "type": "Feature", "properties": { "Name": "Crosby Community Center", "Address": "409 Hare Road" }, "geometry": { "type": "Point", "coordinates": [ -95.065860899890609, 29.910252499623716 ] } },
{ "type": "Feature", "properties": { "Name": "El Franco Lee Community Center", "Address": "9500 Hall Road" }, "geometry": { "type": "Point", "coordinates": [ -95.209744500020847, 29.589909999886256 ] } },
{ "type": "Feature", "properties": { "Name": "Clear Lake Islamic Center", "Address": "17511 El Camino Real" }, "geometry": { "type": "Point", "coordinates": [ -95.11512499965356, 29.5571449996174 ] } },
{ "type": "Feature", "properties": { "Name": "MultiCultural Center", "Address": "951 Tristar Drive" }, "geometry": { "type": "Point", "coordinates": [ -95.122064999958042, 29.540470000229334 ] } },
{ "type": "Feature", "properties": { "Name": "Pipers Meadow Community Center", "Address": "15920 Pipers View Drive" }, "geometry": { "type": "Point", "coordinates": [ -95.142429990705338, 29.55114001891139 ] } },
{ "type": "Feature", "properties": { "Name": "Harris County Scarsdale Annex", "Address": "10851 Scarsdale Boulevard" }, "geometry": { "type": "Point", "coordinates": [ -95.209744500020847, 29.589909999886256 ] } },
{ "type": "Feature", "properties": { "Name": "University of Houston Clear Lake", "Address": "2700 Bay Area Boulevard" }, "geometry": { "type": "Point", "coordinates": [ -95.11512499965356, 29.5571449996174 ] } },
{ "type": "Feature", "properties": { "Name": "Webster Recreation Center", "Address": "311 Pennsylvania Avenue" }, "geometry": { "type": "Point", "coordinates": [ -95.11898999846855, 29.533379981298303 ] } },
{ "type": "Feature", "properties": { "Name": "Forest Bend Homeowners Association Inc", "Address": "4300 Laura Leigh Lane" }, "geometry": { "type": "Point", "coordinates": [ -95.201339999664853, 29.53113000014746 ] } },
{ "type": "Feature", "properties": { "Name": "Juergens Hall Community Center", "Address": "26026 Hempstead Highway" }, "geometry": { "type": "Point", "coordinates": [ -95.69831998857569, 29.969749990830412 ] } },
{ "type": "Feature", "properties": { "Name": "Hockley Community Center", "Address": "28515 Old Washington Road" }, "geometry": { "type": "Point", "coordinates": [ -95.804859999812592, 30.019510000100123 ] } },
{ "type": "Feature", "properties": { "Name": "Saint John Lutheran Church and School", "Address": "15235 Spring Cypress Road" }, "geometry": { "type": "Point", "coordinates": [ -95.653264999873727, 29.979894999957875 ] } },
{ "type": "Feature", "properties": { "Name": "Tomball Public Works Building", "Address": "501B James Street" }, "geometry": { "type": "Point", "coordinates": [ -95.621510000144468, 30.094810000157963 ] } },
{ "type": "Feature", "properties": { "Name": "Hiram Clarke Multi Service Center", "Address": "3810 West Fuqua Street" }, "geometry": { "type": "Point", "coordinates": [ -95.434270005140291, 29.613610007929889 ] } },
{ "type": "Feature", "properties": { "Name": "Iglesia Episcopal Church", "Address": "9600 Huntington Place Drive" }, "geometry": { "type": "Point", "coordinates": [ -95.359130000093643, 29.780429999823205 ] } },
{ "type": "Feature", "properties": { "Name": "Kingdom Builders Center", "Address": "6011 West Orem Drive" }, "geometry": { "type": "Point", "coordinates": [ -95.472670000231346, 29.633485500303667 ] } },
{ "type": "Feature", "properties": { "Name": "The Power Center", "Address": "12401 South Post Oak Road" }, "geometry": { "type": "Point", "coordinates": [ -95.463510023009633, 29.646930000655402 ] } },
{ "type": "Feature", "properties": { "Name": "Raindrop Turkish House", "Address": "9301 West Bellfort Boulevard" }, "geometry": { "type": "Point", "coordinates": [ -95.542891100276805, 29.649768600374998 ] } },
{ "type": "Feature", "properties": { "Name": "Lakeland Activity Center", "Address": "16919 North Bridgeland Lake Parkway" }, "geometry": { "type": "Point", "coordinates": [ -95.742494799877448, 30.003322400036392 ] } },
{ "type": "Feature", "properties": { "Name": "James E Taylor High School", "Address": "20700 Kingsland Boulevard" }, "geometry": { "type": "Point", "coordinates": [ -95.732610018765357, 29.776010010405368 ] } },
{ "type": "Feature", "properties": { "Name": "Katy Branch Harris County Public Library", "Address": "5414 Franz Road" }, "geometry": { "type": "Point", "coordinates": [ -95.819300020051102, 29.801710014937033 ] } },
{ "type": "Feature", "properties": { "Name": "Lone Star College Cypress Center", "Address": "19710 Clay Road" }, "geometry": { "type": "Point", "coordinates": [ -95.72539549959825, 29.795809999961072 ] } },
{ "type": "Feature", "properties": { "Name": "Harris County MUD 81 Building", "Address": "805 Hidden Canyon Road" }, "geometry": { "type": "Point", "coordinates": [ -95.756870012956455, 29.768059984541068 ] } },
{ "type": "Feature", "properties": { "Name": "John Paul Landing Environmental Education Center", "Address": "9950 Katy Hockley Road" }, "geometry": { "type": "Point", "coordinates": [ -95.742494799877448, 30.003322400036392 ] } },
{ "type": "Feature", "properties": { "Name": "Morton Ranch High School", "Address": "21000 Franz Road" }, "geometry": { "type": "Point", "coordinates": [ -95.743310020997782, 29.802049985204505 ] } },
{ "type": "Feature", "properties": { "Name": "Nottingham Park Building", "Address": "926 Country Place Drive" }, "geometry": { "type": "Point", "coordinates": [ -95.606205000203644, 29.770269999727507 ] } },
{ "type": "Feature", "properties": { "Name": "Unity of Houston Annex", "Address": "2819 Hillcroft Street" }, "geometry": { "type": "Point", "coordinates": [ -95.483724999596035, 29.731434999791311 ] } },
{ "type": "Feature", "properties": { "Name": "First Congregational Church", "Address": "10840 Beinhorn Road" }, "geometry": { "type": "Point", "coordinates": [ -95.504299967947759, 29.777750009344075 ] } },
{ "type": "Feature", "properties": { "Name": "Crowne Plaza Houston Galleria", "Address": "7611 Katy Freeway" }, "geometry": { "type": "Point", "coordinates": [ -95.465280029309469, 29.783610007460684 ] } },
{ "type": "Feature", "properties": { "Name": "Hampton Inn Galleria", "Address": "4500 Post Oak Parkway" }, "geometry": { "type": "Point", "coordinates": [ -95.45495997940796, 29.748220020093456 ] } },
{ "type": "Feature", "properties": { "Name": "Hampton Inn and Suites", "Address": "5820 Katy Freeway" }, "geometry": { "type": "Point", "coordinates": [ -95.429419984751689, 29.778099995915607 ] } },
{ "type": "Feature", "properties": { "Name": "Metropolitan MultiService Center", "Address": "1475 West Gray Street" }, "geometry": { "type": "Point", "coordinates": [ -95.399419979575555, 29.753139987083621 ] } },
{ "type": "Feature", "properties": { "Name": "Reckling Park - Rice University Athletics", "Address": "2050 University" }, "geometry": { "type": "Point", "coordinates": [ -95.418490000331786, 29.720899999785946 ] } },
{ "type": "Feature", "properties": { "Name": "John P McGovern Texas Medical Center Commons", "Address": "6550 Bertner Avenue" }, "geometry": { "type": "Point", "coordinates": [ -95.399326700313097, 29.704709100085271 ] } },
{ "type": "Feature", "properties": { "Name": "HCC West Loop South", "Address": "5601 West Loop South" }, "geometry": { "type": "Point", "coordinates": [ -95.487960000103541, 29.701879999811599 ] } },
{ "type": "Feature", "properties": { "Name": "City Jersey Village Municipal Government Center", "Address": "16327 Lakeview Drive" }, "geometry": { "type": "Point", "coordinates": [ -95.569410005267827, 29.883499997794264 ] } },
{ "type": "Feature", "properties": { "Name": "Richard and Meg Weekley Community Center", "Address": "8440 Greenhouse Road" }, "geometry": { "type": "Point", "coordinates": [ -95.705279985378397, 29.898519990833901 ] } }
]
}
